{
"type": "FeatureCollection",
"features": [
{ "type": "Feature", "properties": { "field_1": "3", "City": "Beaver", "Distribution": "6467.01", "latitude": "38.2761799996075", "longitude": "-112.641240000326", "taxLev": "6", "marker-color": "#8D0071", "marker-size": "small" }, "geometry": { "type": "Point", "coordinates": [ -112.641240000325993, 38.2761799996075 ] } },
{ "type": "Feature", "properties": { "field_1": "4", "City": "Milford", "Distribution": "4825.31", "latitude": "38.3966799995825", "longitude": "-113.010859999689", "taxLev": "6", "marker-color": "#8D0071", "marker-size": "small" }, "geometry": { "type": "Point", "coordinates": [ -113.010859999689004, 38.396679999582503 ] } },
{ "type": "Feature", "properties": { "field_1": "5", "City": "Minersville", "Distribution": "1818.42", "latitude": "38.214769999636", "longitude": "-112.923930000069", "taxLev": "5", "marker-color": "#71008D", "marker-size": "small" }, "geometry": { "type": "Point", "coordinates": [ -112.923930000069006, 38.214769999635998 ] } },
{ "type": "Feature", "properties": { "field_1": "7", "City": "Bear River City", "Distribution": "764.91", "latitude": "41.6113400001411", "longitude": "-112.127109999926", "taxLev": "4", "marker-color": "#5500AA", "marker-size": "small" }, "geometry": { "type": "Point", "coordinates": [ -112.127109999926006, 41.611340000141098 ] } },
{ "type": "Feature", "properties": { "field_1": "8", "City": "Brigham City", "Distribution": "14727.71", "latitude": "41.5116300002245", "longitude": "-112.015740000101", "taxLev": "7", "marker-color": "#AA0055", "marker-size": "small" }, "geometry": { "type": "Point", "coordinates": [ -112.015740000101005, 41.5116300002245 ] } },
{ "type": "Feature", "properties": { "field_1": "9", "City": "Corinne", "Distribution": "1719.8", "latitude": "41.5513299999797", "longitude": "-112.11040000006", "taxLev": "5", "marker-color": "#71008D", "marker-size": "small" }, "geometry": { "type": "Point", "coordinates": [ -112.110400000059997, 41.5513299999797 ] } },
{ "type": "Feature", "properties": { "field_1": "10", "City": "Deweyville", "Distribution": "163.35", "latitude": "41.7153600000641", "longitude": "-112.095009999911", "taxLev": "3", "marker-color": "#3800C6", "marker-size": "small" }, "geometry": { "type": "Point", "coordinates": [ -112.095009999910999, 41.715360000064102 ] } },
{ "type": "Feature", "properties": { "field_1": "11", "City": "Elwood", "Distribution": "783.5", "latitude": "41.6736399997863", "longitude": "-112.141009999712", "taxLev": "4", "marker-color": "#5500AA", "marker-size": "small" }, "geometry": { "type": "Point", "coordinates": [ -112.141009999711997, 41.673639999786303 ] } },
{ "type": "Feature", "properties": { "field_1": "12", "City": "Fielding", "Distribution": "208.58", "latitude": "41.8136900001935", "longitude": "-112.116120000338", "taxLev": "3", "marker-color": "#3800C6", "marker-size": "small" }, "geometry": { "type": "Point", "coordinates": [ -112.116120000338, 41.813690000193503 ] } },
{ "type": "Feature", "properties": { "field_1": "13", "City": "Garland", "Distribution": "2106.82", "latitude": "41.740520000198", "longitude": "-112.162619999813", "taxLev": "5", "marker-color": "#71008D", "marker-size": "small" }, "geometry": { "type": "Point", "coordinates": [ -112.162619999813003, 41.740520000198003 ] } },
{ "type": "Feature", "properties": { "field_1": "14", "City": "Honeyville", "Distribution": "1034.76", "latitude": "41.6366599995595", "longitude": "-112.079579999717", "taxLev": "5", "marker-color": "#71008D", "marker-size": "small" }, "geometry": { "type": "Point", "coordinates": [ -112.079579999716998, 41.636659999559498 ] } },
{ "type": "Feature", "properties": { "field_1": "15", "City": "Howell", "Distribution": "119.63", "latitude": "41.8121100001765", "longitude": "-112.415339999741", "taxLev": "3", "marker-color": "#3800C6", "marker-size": "small" }, "geometry": { "type": "Point", "coordinates": [ -112.415339999740993, 41.812110000176503 ] } },
{ "type": "Feature", "properties": { "field_1": "16", "City": "Mantua", "Distribution": "915.24", "latitude": "41.504240000276", "longitude": "-111.942790000358", "taxLev": "5", "marker-color": "#71008D", "marker-size": "small" }, "geometry": { "type": "Point", "coordinates": [ -111.942790000358002, 41.504240000275999 ] } },
{ "type": "Feature", "properties": { "field_1": "17", "City": "Perry", "Distribution": "3054.6", "latitude": "41.4550499999577", "longitude": "-112.044559999944", "taxLev": "6", "marker-color": "#8D0071", "marker-size": "small" }, "geometry": { "type": "Point", "coordinates": [ -112.044559999943999, 41.455049999957701 ] } },
{ "type": "Feature", "properties": { "field_1": "18", "City": "Plymouth", "Distribution": "182.95", "latitude": "41.874340000191", "longitude": "-112.149740000301", "taxLev": "3", "marker-color": "#3800C6", "marker-size": "small" }, "geometry": { "type": "Point", "coordinates": [ -112.149740000300994, 41.874340000190998 ] } },
{ "type": "Feature", "properties": { "field_1": "19", "City": "Portage", "Distribution": "139.73", "latitude": "41.9757599998243", "longitude": "-112.229689999993", "taxLev": "3", "marker-color": "#3800C6", "marker-size": "small" }, "geometry": { "type": "Point", "coordinates": [ -112.229689999992999, 41.975759999824298 ] } },
{ "type": "Feature", "properties": { "field_1": "20", "City": "Snowville", "Distribution": "420.68", "latitude": "41.9655700002555", "longitude": "-112.715609999901", "taxLev": "4", "marker-color": "#5500AA", "marker-size": "small" }, "geometry": { "type": "Point", "coordinates": [ -112.715609999901005, 41.965570000255497 ] } },
{ "type": "Feature", "properties": { "field_1": "21", "City": "Tremonton", "Distribution": "7450.33", "latitude": "41.7189799997274", "longitude": "-112.165690000193", "taxLev": "6", "marker-color": "#8D0071", "marker-size": "small" }, "geometry": { "type": "Point", "coordinates": [ -112.165690000192996, 41.718979999727402 ] } },
{ "type": "Feature", "properties": { "field_1": "22", "City": "Willard", "Distribution": "2186.96", "latitude": "41.4081700000456", "longitude": "-112.037490000363", "taxLev": "5", "marker-color": "#71008D", "marker-size": "small" }, "geometry": { "type": "Point", "coordinates": [ -112.037490000362993, 41.408170000045601 ] } },
{ "type": "Feature", "properties": { "field_1": "24", "City": "Amalga", "Distribution": "236.72", "latitude": "41.8482999999452", "longitude": "-111.893689999694", "taxLev": "3", "marker-color": "#3800C6", "marker-size": "small" }, "geometry": { "type": "Point", "coordinates": [ -111.893689999694004, 41.848299999945198 ] } },
{ "type": "Feature", "properties": { "field_1": "25", "City": "Clarkston", "Distribution": "469.68", "latitude": "41.9210500003574", "longitude": "-112.044969999965", "taxLev": "4", "marker-color": "#5500AA", "marker-size": "small" }, "geometry": { "type": "Point", "coordinates": [ -112.044969999965005, 41.921050000357397 ] } },
{ "type": "Feature", "properties": { "field_1": "26", "City": "Cornish", "Distribution": "137.72", "latitude": "41.9754000003099", "longitude": "-111.953220000203", "taxLev": "3", "marker-color": "#3800C6", "marker-size": "small" }, "geometry": { "type": "Point", "coordinates": [ -111.953220000203004, 41.975400000309897 ] } },
{ "type": "Feature", "properties": { "field_1": "27", "City": "Hyde Park", "Distribution": "2307.97", "latitude": "41.7991000000651", "longitude": "-111.820559999744", "taxLev": "5", "marker-color": "#71008D", "marker-size": "small" }, "geometry": { "type": "Point", "coordinates": [ -111.820559999744006, 41.799100000065103 ] } },
{ "type": "Feature", "properties": { "field_1": "28", "City": "Hyrum", "Distribution": "8262.93", "latitude": "41.6339600000541", "longitude": "-111.851010000111", "taxLev": "7", "marker-color": "#AA0055", "marker-size": "small" }, "geometry": { "type": "Point", "coordinates": [ -111.851010000111003, 41.633960000054103 ] } },
{ "type": "Feature", "properties": { "field_1": "29", "City": "Lewiston", "Distribution": "1751.02", "latitude": "41.975949999593", "longitude": "-111.848879999912", "taxLev": "5", "marker-color": "#71008D", "marker-size": "small" }, "geometry": { "type": "Point", "coordinates": [ -111.848879999912, 41.975949999592999 ] } },
{ "type": "Feature", "properties": { "field_1": "30", "City": "Logan", "Distribution": "69145.26", "latitude": "41.7361799997074", "longitude": "-111.834850000427", "taxLev": "8", "marker-color": "#C60038", "marker-size": "small" }, "geometry": { "type": "Point", "coordinates": [ -111.834850000426997, 41.736179999707403 ] } },
{ "type": "Feature", "properties": { "field_1": "31", "City": "Mendon", "Distribution": "598.53", "latitude": "41.7079100000466", "longitude": "-111.977890000223", "taxLev": "4", "marker-color": "#5500AA", "marker-size": "small" }, "geometry": { "type": "Point", "coordinates": [ -111.977890000222999, 41.707910000046603 ] } },
{ "type": "Feature", "properties": { "field_1": "32", "City": "Millville", "Distribution": "915.12", "latitude": "41.6780600003689", "longitude": "-111.825099999565", "taxLev": "5", "marker-color": "#71008D", "marker-size": "small" }, "geometry": { "type": "Point", "coordinates": [ -111.825099999564998, 41.678060000368902 ] } },
{ "type": "Feature", "properties": { "field_1": "33", "City": "Newton", "Distribution": "790.18", "latitude": "41.8624199999832", "longitude": "-111.989860000039", "taxLev": "4", "marker-color": "#5500AA", "marker-size": "small" }, "geometry": { "type": "Point", "coordinates": [ -111.989860000039002, 41.862419999983203 ] } },
{ "type": "Feature", "properties": { "field_1": "34", "City": "North Logan", "Distribution": "7105.3", "latitude": "41.7858600001391", "longitude": "-111.833770000085", "taxLev": "6", "marker-color": "#8D0071", "marker-size": "small" }, "geometry": { "type": "Point", "coordinates": [ -111.833770000084996, 41.785860000139103 ] } },
{ "type": "Feature", "properties": { "field_1": "35", "City": "Paradise", "Distribution": "448.28", "latitude": "41.5664799998523", "longitude": "-111.83139999961", "taxLev": "4", "marker-color": "#5500AA", "marker-size": "small" }, "geometry": { "type": "Point", "coordinates": [ -111.831399999609999, 41.566479999852298 ] } },
{ "type": "Feature", "properties": { "field_1": "36", "City": "Providence", "Distribution": "5186.74", "latitude": "41.709980000177", "longitude": "-111.821559999994", "taxLev": "6", "marker-color": "#8D0071", "marker-size": "small" }, "geometry": { "type": "Point", "coordinates": [ -111.821559999993994, 41.709980000176998 ] } },
{ "type": "Feature", "properties": { "field_1": "37", "City": "Richmond", "Distribution": "2251.55", "latitude": "41.9217300002395", "longitude": "-111.814379999837", "taxLev": "5", "marker-color": "#71008D", "marker-size": "small" }, "geometry": { "type": "Point", "coordinates": [ -111.814379999837001, 41.921730000239499 ] } },
{ "type": "Feature", "properties": { "field_1": "38", "City": "River Heights", "Distribution": "854.81", "latitude": "41.7213599997643", "longitude": "-111.82119999958", "taxLev": "5", "marker-color": "#71008D", "marker-size": "small" }, "geometry": { "type": "Point", "coordinates": [ -111.821199999580003, 41.721359999764303 ] } },
{ "type": "Feature", "properties": { "field_1": "39", "City": "Smithfield", "Distribution": "8586.79", "latitude": "41.8380199998233", "longitude": "-111.832640000136", "taxLev": "7", "marker-color": "#AA0055", "marker-size": "small" }, "geometry": { "type": "Point", "coordinates": [ -111.832640000135996, 41.838019999823302 ] } },
{ "type": "Feature", "properties": { "field_1": "40", "City": "Wellsville", "Distribution": "4372.8", "latitude": "41.6387400001511", "longitude": "-111.933410000371", "taxLev": "6", "marker-color": "#8D0071", "marker-size": "small" }, "geometry": { "type": "Point", "coordinates": [ -111.933410000370998, 41.638740000151103 ] } },
{ "type": "Feature", "properties": { "field_1": "41", "City": "Trenton", "Distribution": "251.79", "latitude": "41.9176300000246", "longitude": "-111.946089999654", "taxLev": "3", "marker-color": "#3800C6", "marker-size": "small" }, "geometry": { "type": "Point", "coordinates": [ -111.946089999654006, 41.917630000024602 ] } },
{ "type": "Feature", "properties": { "field_1": "42", "City": "Nibley", "Distribution": "4036.04", "latitude": "41.6757699999857", "longitude": "-111.833380000087", "taxLev": "6", "marker-color": "#8D0071", "marker-size": "small" }, "geometry": { "type": "Point", "coordinates": [ -111.833380000087004, 41.675769999985697 ] } },
{ "type": "Feature", "properties": { "field_1": "44", "City": "Helper", "Distribution": "6879.58", "latitude": "39.6832299999647", "longitude": "-110.854649999997", "taxLev": "6", "marker-color": "#8D0071", "marker-size": "small" }, "geometry": { "type": "Point", "coordinates": [ -110.854649999996994, 39.683229999964702 ] } },
{ "type": "Feature", "properties": { "field_1": "45", "City": "Price", "Distribution": "19167.88", "latitude": "39.6010099999118", "longitude": "-110.810990000188", "taxLev": "7", "marker-color": "#AA0055", "marker-size": "small" }, "geometry": { "type": "Point", "coordinates": [ -110.810990000187999, 39.601009999911803 ] } },
{ "type": "Feature", "properties": { "field_1": "46", "City": "Scofield", "Distribution": "349.83", "latitude": "39.7273399998413", "longitude": "-111.160179999907", "taxLev": "4", "marker-color": "#5500AA", "marker-size": "small" }, "geometry": { "type": "Point", "coordinates": [ -111.160179999907001, 39.727339999841298 ] } },
{ "type": "Feature", "properties": { "field_1": "47", "City": "Sunnyside", "Distribution": "234.35", "latitude": "39.5495700001555", "longitude": "-110.394460000429", "taxLev": "3", "marker-color": "#3800C6", "marker-size": "small" }, "geometry": { "type": "Point", "coordinates": [ -110.394460000429007, 39.549570000155498 ] } },
{ "type": "Feature", "properties": { "field_1": "48", "City": "Wellington", "Distribution": "2654.46", "latitude": "39.5418900003234", "longitude": "-110.734049999907", "taxLev": "6", "marker-color": "#8D0071", "marker-size": "small" }, "geometry": { "type": "Point", "coordinates": [ -110.734049999907, 39.541890000323399 ] } },
{ "type": "Feature", "properties": { "field_1": "49", "City": "East Carbon", "Distribution": "2160.04", "latitude": "39.5424900001136", "longitude": "-110.418830000104", "taxLev": "5", "marker-color": "#71008D", "marker-size": "small" }, "geometry": { "type": "Point", "coordinates": [ -110.418830000103995, 39.542490000113602 ] } },
{ "type": "Feature", "properties": { "field_1": "51", "City": "Manila", "Distribution": "1871.1", "latitude": "40.9872100001415", "longitude": "-109.722720000128", "taxLev": "5", "marker-color": "#71008D", "marker-size": "small" }, "geometry": { "type": "Point", "coordinates": [ -109.722720000128007, 40.987210000141502 ] } },
{ "type": "Feature", "properties": { "field_1": "53", "City": "Bountiful", "Distribution": "43160.39", "latitude": "40.8817399999012", "longitude": "-111.878390000098", "taxLev": "8", "marker-color": "#C60038", "marker-size": "small" }, "geometry": { "type": "Point", "coordinates": [ -111.878390000097994, 40.8817399999012 ] } },
{ "type": "Feature", "properties": { "field_1": "54", "City": "Centerville", "Distribution": "19864.49", "latitude": "40.9197699999857", "longitude": "-111.878980000327", "taxLev": "7", "marker-color": "#AA0055", "marker-size": "small" }, "geometry": { "type": "Point", "coordinates": [ -111.878980000327005, 40.919769999985697 ] } },
{ "type": "Feature", "properties": { "field_1": "55", "City": "Clearfield", "Distribution": "46014.82", "latitude": "41.1138400004158", "longitude": "-112.022310000006", "taxLev": "8", "marker-color": "#C60038", "marker-size": "small" }, "geometry": { "type": "Point", "coordinates": [ -112.022310000006001, 41.113840000415799 ] } },
{ "type": "Feature", "properties": { "field_1": "56", "City": "Fruit Heights", "Distribution": "3301.35", "latitude": "41.0204299996449", "longitude": "-111.906759999874", "taxLev": "6", "marker-color": "#8D0071", "marker-size": "small" }, "geometry": { "type": "Point", "coordinates": [ -111.906759999873998, 41.020429999644897 ] } },
{ "type": "Feature", "properties": { "field_1": "57", "City": "Farmington", "Distribution": "11744.85", "latitude": "40.9831099999267", "longitude": "-111.887560000294", "taxLev": "7", "marker-color": "#AA0055", "marker-size": "small" }, "geometry": { "type": "Point", "coordinates": [ -111.887560000294002, 40.983109999926697 ] } },
{ "type": "Feature", "properties": { "field_1": "58", "City": "Kaysville", "Distribution": "15663.45", "latitude": "41.0348500000276", "longitude": "-111.937480000102", "taxLev": "7", "marker-color": "#AA0055", "marker-size": "small" }, "geometry": { "type": "Point", "coordinates": [ -111.937480000101999, 41.034850000027603 ] } },
{ "type": "Feature", "properties": { "field_1": "59", "City": "Layton", "Distribution": "70661.61", "latitude": "41.0659299997698", "longitude": "-111.961020000173", "taxLev": "8", "marker-color": "#C60038", "marker-size": "small" }, "geometry": { "type": "Point", "coordinates": [ -111.961020000172994, 41.0659299997698 ] } },
{ "type": "Feature", "properties": { "field_1": "60", "City": "North Salt Lake", "Distribution": "17108.19", "latitude": "40.8403800000372", "longitude": "-111.910980000227", "taxLev": "7", "marker-color": "#AA0055", "marker-size": "small" }, "geometry": { "type": "Point", "coordinates": [ -111.910980000226999, 40.8403800000372 ] } },
{ "type": "Feature", "properties": { "field_1": "61", "City": "South Weber", "Distribution": "3637.22", "latitude": "41.1330100004113", "longitude": "-111.938779999797", "taxLev": "6", "marker-color": "#8D0071", "marker-size": "small" }, "geometry": { "type": "Point", "coordinates": [ -111.938779999797006, 41.133010000411304 ] } },
{ "type": "Feature", "properties": { "field_1": "62", "City": "Sunset", "Distribution": "8383.02", "latitude": "41.1398799997623", "longitude": "-112.029559999794", "taxLev": "7", "marker-color": "#AA0055", "marker-size": "small" }, "geometry": { "type": "Point", "coordinates": [ -112.029559999794003, 41.1398799997623 ] } },
{ "type": "Feature", "properties": { "field_1": "63", "City": "Syracuse", "Distribution": "18910.56", "latitude": "41.0888099999817", "longitude": "-112.064610000051", "taxLev": "7", "marker-color": "#AA0055", "marker-size": "small" }, "geometry": { "type": "Point", "coordinates": [ -112.064610000051005, 41.088809999981699 ] } },
{ "type": "Feature", "properties": { "field_1": "64", "City": "West Point", "Distribution": "4640.94", "latitude": "41.1181100003764", "longitude": "-112.088159999684", "taxLev": "6", "marker-color": "#8D0071", "marker-size": "small" }, "geometry": { "type": "Point", "coordinates": [ -112.088159999683995, 41.118110000376397 ] } },
{ "type": "Feature", "properties": { "field_1": "65", "City": "Woods Cross", "Distribution": "15042.79", "latitude": "40.8738599998393", "longitude": "-111.902030000284", "taxLev": "7", "marker-color": "#AA0055", "marker-size": "small" }, "geometry": { "type": "Point", "coordinates": [ -111.902030000284, 40.873859999839297 ] } },
{ "type": "Feature", "properties": { "field_1": "66", "City": "Clinton", "Distribution": "18169.78", "latitude": "41.1398799997623", "longitude": "-112.063790000008", "taxLev": "7", "marker-color": "#AA0055", "marker-size": "small" }, "geometry": { "type": "Point", "coordinates": [ -112.063790000007998, 41.1398799997623 ] } },
{ "type": "Feature", "properties": { "field_1": "67", "City": "West Bountiful", "Distribution": "7221.35", "latitude": "40.8992099997419", "longitude": "-111.90207000033", "taxLev": "6", "marker-color": "#8D0071", "marker-size": "small" }, "geometry": { "type": "Point", "coordinates": [ -111.902070000329999, 40.899209999741899 ] } },
{ "type": "Feature", "properties": { "field_1": "69", "City": "Altamont", "Distribution": "438.77", "latitude": "40.3593600003639", "longitude": "-110.284259999699", "taxLev": "4", "marker-color": "#5500AA", "marker-size": "small" }, "geometry": { "type": "Point", "coordinates": [ -110.284259999699003, 40.3593600003639 ] } },
{ "type": "Feature", "properties": { "field_1": "70", "City": "Duchesne", "Distribution": "2563.07", "latitude": "40.1637099999167", "longitude": "-110.401360000264", "taxLev": "6", "marker-color": "#8D0071", "marker-size": "small" }, "geometry": { "type": "Point", "coordinates": [ -110.401360000264006, 40.163709999916698 ] } },
{ "type": "Feature", "properties": { "field_1": "71", "City": "Myton", "Distribution": "1338.35", "latitude": "40.1957800003469", "longitude": "-110.070579999667", "taxLev": "5", "marker-color": "#71008D", "marker-size": "small" }, "geometry": { "type": "Point", "coordinates": [ -110.070579999667004, 40.1957800003469 ] } },
{ "type": "Feature", "properties": { "field_1": "72", "City": "Roosevelt", "Distribution": "21648.42", "latitude": "40.302120000238", "longitude": "-109.989589999679", "taxLev": "7", "marker-color": "#AA0055", "marker-size": "small" }, "geometry": { "type": "Point", "coordinates": [ -109.989589999678998, 40.302120000237998 ] } },
{ "type": "Feature", "properties": { "field_1": "73", "City": "Tabiona", "Distribution": "422.69", "latitude": "40.3515099998867", "longitude": "-110.709520000048", "taxLev": "4", "marker-color": "#5500AA", "marker-size": "small" }, "geometry": { "type": "Point", "coordinates": [ -110.709520000048002, 40.351509999886702 ] } },
{ "type": "Feature", "properties": { "field_1": "75", "City": "Castle Dale", "Distribution": "2166.04", "latitude": "39.2117199999782", "longitude": "-111.015640000186", "taxLev": "5", "marker-color": "#71008D", "marker-size": "small" }, "geometry": { "type": "Point", "coordinates": [ -111.015640000185996, 39.2117199999782 ] } },
{ "type": "Feature", "properties": { "field_1": "76", "City": "Clawson", "Distribution": "81.94", "latitude": "39.1300900001535", "longitude": "-111.101760000224", "taxLev": "2", "marker-color": "#1C00E2", "marker-size": "small" }, "geometry": { "type": "Point", "coordinates": [ -111.101760000224004, 39.130090000153501 ] } },
{ "type": "Feature", "properties": { "field_1": "77", "City": "Cleveland", "Distribution": "599.07", "latitude": "39.3508199997434", "longitude": "-110.851949999593", "taxLev": "4", "marker-color": "#5500AA", "marker-size": "small" }, "geometry": { "type": "Point", "coordinates": [ -110.851949999593003, 39.350819999743401 ] } },
{ "type": "Feature", "properties": { "field_1": "78", "City": "Elmo", "Distribution": "179.93", "latitude": "39.3895899997788", "longitude": "-110.818269999561", "taxLev": "3", "marker-color": "#3800C6", "marker-size": "small" }, "geometry": { "type": "Point", "coordinates": [ -110.818269999560997, 39.389589999778799 ] } },
{ "type": "Feature", "properties": { "field_1": "79", "City": "Emery", "Distribution": "142.75", "latitude": "38.9224899999138", "longitude": "-111.255579999817", "taxLev": "3", "marker-color": "#3800C6", "marker-size": "small" }, "geometry": { "type": "Point", "coordinates": [ -111.255579999817002, 38.9224899999138 ] } },
{ "type": "Feature", "properties": { "field_1": "80", "City": "Ferron", "Distribution": "1809.21", "latitude": "39.0883099998068", "longitude": "-111.133089999803", "taxLev": "5", "marker-color": "#71008D", "marker-size": "small" }, "geometry": { "type": "Point", "coordinates": [ -111.133089999803005, 39.088309999806803 ] } },
{ "type": "Feature", "properties": { "field_1": "81", "City": "Green River", "Distribution": "4918.67", "latitude": "38.9955100001865", "longitude": "-110.158840000366", "taxLev": "6", "marker-color": "#8D0071", "marker-size": "small" }, "geometry": { "type": "Point", "coordinates": [ -110.158840000365998, 38.995510000186499 ] } },
{ "type": "Feature", "properties": { "field_1": "82", "City": "Huntington", "Distribution": "2410.26", "latitude": "39.3339899997389", "longitude": "-110.964669999621", "taxLev": "5", "marker-color": "#71008D", "marker-size": "small" }, "geometry": { "type": "Point", "coordinates": [ -110.964669999620995, 39.333989999738897 ] } },
{ "type": "Feature", "properties": { "field_1": "83", "City": "Orangeville", "Distribution": "1020.69", "latitude": "39.2313800000871", "longitude": "-111.053209999742", "taxLev": "5", "marker-color": "#71008D", "marker-size": "small" }, "geometry": { "type": "Point", "coordinates": [ -111.053209999741995, 39.2313800000871 ] } },
{ "type": "Feature", "properties": { "field_1": "85", "City": "Antimony", "Distribution": "393.54", "latitude": "38.1152399999262", "longitude": "-111.996850000427", "taxLev": "4", "marker-color": "#5500AA", "marker-size": "small" }, "geometry": { "type": "Point", "coordinates": [ -111.996850000427003, 38.115239999926203 ] } },
{ "type": "Feature", "properties": { "field_1": "86", "City": "Boulder", "Distribution": "3173.78", "latitude": "37.9078399999162", "longitude": "-111.42426999986", "taxLev": "6", "marker-color": "#8D0071", "marker-size": "small" }, "geometry": { "type": "Point", "coordinates": [ -111.424269999860002, 37.907839999916199 ] } },
{ "type": "Feature", "properties": { "field_1": "87", "City": "Bryce Canyon", "Distribution": "1736.42", "latitude": "37.6234999996254", "longitude": "-112.171330000379", "taxLev": "5", "marker-color": "#71008D", "marker-size": "small" }, "geometry": { "type": "Point", "coordinates": [ -112.171330000379001, 37.623499999625402 ] } },
{ "type": "Feature", "properties": { "field_1": "88", "City": "Cannonville", "Distribution": "405.61", "latitude": "37.5685499998827", "longitude": "-112.054029999585", "taxLev": "4", "marker-color": "#5500AA", "marker-size": "small" }, "geometry": { "type": "Point", "coordinates": [ -112.054029999584998, 37.568549999882698 ] } },
{ "type": "Feature", "properties": { "field_1": "89", "City": "Escalante", "Distribution": "3542.91", "latitude": "37.7703299997299", "longitude": "-111.600519999598", "taxLev": "6", "marker-color": "#8D0071", "marker-size": "small" }, "geometry": { "type": "Point", "coordinates": [ -111.600519999598006, 37.770329999729903 ] } },
{ "type": "Feature", "properties": { "field_1": "90", "City": "Hatch", "Distribution": "52.79", "latitude": "37.65060000019", "longitude": "-112.434420000083", "taxLev": "2", "marker-color": "#1C00E2", "marker-size": "small" }, "geometry": { "type": "Point", "coordinates": [ -112.434420000082994, 37.650600000190003 ] } },
{ "type": "Feature", "properties": { "field_1": "91", "City": "Henrieville", "Distribution": "67.37", "latitude": "37.5625399997214", "longitude": "-111.99540000011", "taxLev": "2", "marker-color": "#1C00E2", "marker-size": "small" }, "geometry": { "type": "Point", "coordinates": [ -111.995400000109996, 37.562539999721402 ] } },
{ "type": "Feature", "properties": { "field_1": "92", "City": "Panguitch", "Distribution": "4449.56", "latitude": "37.822740000151", "longitude": "-112.434649999897", "taxLev": "6", "marker-color": "#8D0071", "marker-size": "small" }, "geometry": { "type": "Point", "coordinates": [ -112.434649999897005, 37.822740000151001 ] } },
{ "type": "Feature", "properties": { "field_1": "93", "City": "Tropic", "Distribution": "916.7", "latitude": "37.6231699996959", "longitude": "-112.081720000378", "taxLev": "5", "marker-color": "#71008D", "marker-size": "small" }, "geometry": { "type": "Point", "coordinates": [ -112.081720000377999, 37.623169999695897 ] } },
{ "type": "Feature", "properties": { "field_1": "95", "City": "Castle Valley", "Distribution": "187.97", "latitude": "38.6345799995675", "longitude": "-109.404340000291", "taxLev": "3", "marker-color": "#3800C6", "marker-size": "small" }, "geometry": { "type": "Point", "coordinates": [ -109.404340000291, 38.634579999567499 ] } },
{ "type": "Feature", "properties": { "field_1": "96", "City": "Moab", "Distribution": "15357.7", "latitude": "38.570220000253", "longitude": "-109.553060000319", "taxLev": "7", "marker-color": "#AA0055", "marker-size": "small" }, "geometry": { "type": "Point", "coordinates": [ -109.553060000318993, 38.570220000253002 ] } },
{ "type": "Feature", "properties": { "field_1": "98", "City": "Cedar City", "Distribution": "27764.43", "latitude": "37.6779499996929", "longitude": "-113.061759999724", "taxLev": "8", "marker-color": "#C60038", "marker-size": "small" }, "geometry": { "type": "Point", "coordinates": [ -113.061759999724003, 37.677949999692899 ] } },
{ "type": "Feature", "properties": { "field_1": "99", "City": "Enoch", "Distribution": "2672.57", "latitude": "37.764709999567", "longitude": "-113.029010000311", "taxLev": "6", "marker-color": "#8D0071", "marker-size": "small" }, "geometry": { "type": "Point", "coordinates": [ -113.029010000311004, 37.764709999567003 ] } },
{ "type": "Feature", "properties": { "field_1": "100", "City": "Kanarraville", "Distribution": "153.8", "latitude": "37.5422799998223", "longitude": "-113.181060000119", "taxLev": "3", "marker-color": "#3800C6", "marker-size": "small" }, "geometry": { "type": "Point", "coordinates": [ -113.181060000119004, 37.542279999822298 ] } },
{ "type": "Feature", "properties": { "field_1": "101", "City": "Paragonah", "Distribution": "237.22", "latitude": "37.8866599998593", "longitude": "-112.775029999834", "taxLev": "3", "marker-color": "#3800C6", "marker-size": "small" }, "geometry": { "type": "Point", "coordinates": [ -112.775029999834004, 37.886659999859297 ] } },
{ "type": "Feature", "properties": { "field_1": "102", "City": "Parowan", "Distribution": "4399.47", "latitude": "37.8434900001636", "longitude": "-112.827619999563", "taxLev": "6", "marker-color": "#8D0071", "marker-size": "small" }, "geometry": { "type": "Point", "coordinates": [ -112.827619999562998, 37.843490000163598 ] } },
{ "type": "Feature", "properties": { "field_1": "103", "City": "Brian Head", "Distribution": "4513.64", "latitude": "37.6992400003259", "longitude": "-112.845210000441", "taxLev": "6", "marker-color": "#8D0071", "marker-size": "small" }, "geometry": { "type": "Point", "coordinates": [ -112.845210000441, 37.699240000325901 ] } },
{ "type": "Feature", "properties": { "field_1": "105", "City": "Eureka", "Distribution": "1088.56", "latitude": "39.9566500002974", "longitude": "-112.108229999815", "taxLev": "5", "marker-color": "#71008D", "marker-size": "small" }, "geometry": { "type": "Point", "coordinates": [ -112.108229999814995, 39.956650000297401 ] } },
{ "type": "Feature", "properties": { "field_1": "106", "City": "Levan", "Distribution": "830.38", "latitude": "39.5588399995665", "longitude": "-111.864780000197", "taxLev": "5", "marker-color": "#71008D", "marker-size": "small" }, "geometry": { "type": "Point", "coordinates": [ -111.864780000197001, 39.558839999566501 ] } },
{ "type": "Feature", "properties": { "field_1": "107", "City": "Mona", "Distribution": "1064.41", "latitude": "39.819069999581", "longitude": "-111.856240000276", "taxLev": "5", "marker-color": "#71008D", "marker-size": "small" }, "geometry": { "type": "Point", "coordinates": [ -111.856240000276003, 39.819069999580996 ] } },
{ "type": "Feature", "properties": { "field_1": "108", "City": "Nephi", "Distribution": "9343.89", "latitude": "39.7100399997464", "longitude": "-111.835129999849", "taxLev": "7", "marker-color": "#AA0055", "marker-size": "small" }, "geometry": { "type": "Point", "coordinates": [ -111.835129999849002, 39.7100399997464 ] } },
{ "type": "Feature", "properties": { "field_1": "111", "City": "Alton", "Distribution": "65.36", "latitude": "37.4408499997278", "longitude": "-112.482619999713", "taxLev": "2", "marker-color": "#1C00E2", "marker-size": "small" }, "geometry": { "type": "Point", "coordinates": [ -112.482619999712995, 37.440849999727803 ] } },
{ "type": "Feature", "properties": { "field_1": "112", "City": "Glendale", "Distribution": "507.62", "latitude": "37.318740000151", "longitude": "-112.597539999571", "taxLev": "4", "marker-color": "#5500AA", "marker-size": "small" }, "geometry": { "type": "Point", "coordinates": [ -112.597539999570998, 37.318740000151003 ] } },
{ "type": "Feature", "properties": { "field_1": "113", "City": "Kanab", "Distribution": "11592.6", "latitude": "37.0481299998997", "longitude": "-112.527330000279", "taxLev": "7", "marker-color": "#AA0055", "marker-size": "small" }, "geometry": { "type": "Point", "coordinates": [ -112.527330000278994, 37.0481299998997 ] } },
{ "type": "Feature", "properties": { "field_1": "114", "City": "Orderville", "Distribution": "1517.33", "latitude": "37.2759700000157", "longitude": "-112.638029999785", "taxLev": "5", "marker-color": "#71008D", "marker-size": "small" }, "geometry": { "type": "Point", "coordinates": [ -112.638029999785005, 37.275970000015697 ] } },
{ "type": "Feature", "properties": { "field_1": "115", "City": "Big Water", "Distribution": "544.3", "latitude": "37.078349999553", "longitude": "-111.661859999939", "taxLev": "4", "marker-color": "#5500AA", "marker-size": "small" }, "geometry": { "type": "Point", "coordinates": [ -111.661859999938997, 37.078349999552998 ] } },
{ "type": "Feature", "properties": { "field_1": "117", "City": "Delta", "Distribution": "6803.91", "latitude": "39.3524300002445", "longitude": "-112.582629999974", "taxLev": "6", "marker-color": "#8D0071", "marker-size": "small" }, "geometry": { "type": "Point", "coordinates": [ -112.582629999974003, 39.352430000244503 ] } },
{ "type": "Feature", "properties": { "field_1": "118", "City": "Fillmore", "Distribution": "6758.66", "latitude": "38.9700099996619", "longitude": "-112.323719999678", "taxLev": "6", "marker-color": "#8D0071", "marker-size": "small" }, "geometry": { "type": "Point", "coordinates": [ -112.323719999678005, 38.970009999661897 ] } },
{ "type": "Feature", "properties": { "field_1": "119", "City": "Hinckley", "Distribution": "358.83", "latitude": "39.330709999567", "longitude": "-112.665990000438", "taxLev": "4", "marker-color": "#5500AA", "marker-size": "small" }, "geometry": { "type": "Point", "coordinates": [ -112.665990000438001, 39.330709999566999 ] } },
{ "type": "Feature", "properties": { "field_1": "120", "City": "Holden", "Distribution": "181.94", "latitude": "39.0968699997509", "longitude": "-112.270909999697", "taxLev": "3", "marker-color": "#3800C6", "marker-size": "small" }, "geometry": { "type": "Point", "coordinates": [ -112.270909999696997, 39.096869999750901 ] } },
{ "type": "Feature", "properties": { "field_1": "121", "City": "Kanosh", "Distribution": "575.96", "latitude": "38.8024800000521", "longitude": "-112.437689999794", "taxLev": "4", "marker-color": "#5500AA", "marker-size": "small" }, "geometry": { "type": "Point", "coordinates": [ -112.437689999794003, 38.8024800000521 ] } },
{ "type": "Feature", "properties": { "field_1": "122", "City": "Leamington", "Distribution": "99.03", "latitude": "39.5352800003719", "longitude": "-112.279990000238", "taxLev": "3", "marker-color": "#3800C6", "marker-size": "small" }, "geometry": { "type": "Point", "coordinates": [ -112.279990000238001, 39.535280000371898 ] } },
{ "type": "Feature", "properties": { "field_1": "123", "City": "Lynndyl", "Distribution": "398.07", "latitude": "39.5243899999987", "longitude": "-112.372009999861", "taxLev": "4", "marker-color": "#5500AA", "marker-size": "small" }, "geometry": { "type": "Point", "coordinates": [ -112.372009999861007, 39.524389999998697 ] } },
{ "type": "Feature", "properties": { "field_1": "124", "City": "Meadow", "Distribution": "456.86", "latitude": "38.8914599997793", "longitude": "-112.410830000404", "taxLev": "4", "marker-color": "#5500AA", "marker-size": "small" }, "geometry": { "type": "Point", "coordinates": [ -112.410830000404005, 38.8914599997793 ] } },
{ "type": "Feature", "properties": { "field_1": "125", "City": "Oak City", "Distribution": "305.56", "latitude": "39.3760799999922", "longitude": "-112.336080000392", "taxLev": "4", "marker-color": "#5500AA", "marker-size": "small" }, "geometry": { "type": "Point", "coordinates": [ -112.336080000392002, 39.3760799999922 ] } },
{ "type": "Feature", "properties": { "field_1": "126", "City": "Scipio", "Distribution": "145.26", "latitude": "39.2491700002955", "longitude": "-112.103939999831", "taxLev": "3", "marker-color": "#3800C6", "marker-size": "small" }, "geometry": { "type": "Point", "coordinates": [ -112.103939999830999, 39.2491700002955 ] } },
{ "type": "Feature", "properties": { "field_1": "128", "City": "Morgan", "Distribution": "3412.8", "latitude": "41.0357599997243", "longitude": "-111.678279999922", "taxLev": "6", "marker-color": "#8D0071", "marker-size": "small" }, "geometry": { "type": "Point", "coordinates": [ -111.678279999921998, 41.035759999724299 ] } },
{ "type": "Feature", "properties": { "field_1": "130", "City": "Circleville", "Distribution": "241.74", "latitude": "38.1717499996629", "longitude": "-112.271109999926", "taxLev": "3", "marker-color": "#3800C6", "marker-size": "small" }, "geometry": { "type": "Point", "coordinates": [ -112.271109999925997, 38.1717499996629 ] } },
{ "type": "Feature", "properties": { "field_1": "131", "City": "Junction", "Distribution": "767.45", "latitude": "38.2372700003104", "longitude": "-112.219940000031", "taxLev": "4", "marker-color": "#5500AA", "marker-size": "small" }, "geometry": { "type": "Point", "coordinates": [ -112.219940000031002, 38.237270000310403 ] } },
{ "type": "Feature", "properties": { "field_1": "132", "City": "Kingston", "Distribution": "63.85", "latitude": "38.2082999998453", "longitude": "-112.188290000083", "taxLev": "2", "marker-color": "#1C00E2", "marker-size": "small" }, "geometry": { "type": "Point", "coordinates": [ -112.188290000083001, 38.208299999845302 ] } },
{ "type": "Feature", "properties": { "field_1": "133", "City": "Marysvale", "Distribution": "1545.93", "latitude": "38.4477500002625", "longitude": "-112.230220000153", "taxLev": "5", "marker-color": "#71008D", "marker-size": "small" }, "geometry": { "type": "Point", "coordinates": [ -112.230220000152997, 38.447750000262502 ] } },
{ "type": "Feature", "properties": { "field_1": "135", "City": "Garden City", "Distribution": "1941.95", "latitude": "41.9502499997379", "longitude": "-111.393279999772", "taxLev": "5", "marker-color": "#71008D", "marker-size": "small" }, "geometry": { "type": "Point", "coordinates": [ -111.393279999772005, 41.950249999737899 ] } },
{ "type": "Feature", "properties": { "field_1": "136", "City": "Laketown", "Distribution": "87.97", "latitude": "41.8254700002405", "longitude": "-111.32392999967", "taxLev": "3", "marker-color": "#3800C6", "marker-size": "small" }, "geometry": { "type": "Point", "coordinates": [ -111.32392999967, 41.8254700002405 ] } },
{ "type": "Feature", "properties": { "field_1": "137", "City": "Randolph", "Distribution": "918.71", "latitude": "41.6665799997674", "longitude": "-111.184939999581", "taxLev": "5", "marker-color": "#71008D", "marker-size": "small" }, "geometry": { "type": "Point", "coordinates": [ -111.184939999581005, 41.6665799997674 ] } },
{ "type": "Feature", "properties": { "field_1": "138", "City": "Woodruff", "Distribution": "86.46", "latitude": "41.5209199996584", "longitude": "-111.162909999896", "taxLev": "3", "marker-color": "#3800C6", "marker-size": "small" }, "geometry": { "type": "Point", "coordinates": [ -111.162909999896002, 41.520919999658403 ] } },
{ "type": "Feature", "properties": { "field_1": "139", "City": "Salt Lake County", "Distribution": "761052.94", "latitude": "40.7594999997254", "longitude": "-111.888229999715", "taxLev": "10", "marker-color": "#FF0000", "marker-size": "small" }, "geometry": { "type": "Point", "coordinates": [ -111.888229999714994, 40.759499999725399 ] } },
{ "type": "Feature", "properties": { "field_1": "140", "City": "Alta", "Distribution": "5596.5", "latitude": "40.5896900001935", "longitude": "-111.639630000024", "taxLev": "6", "marker-color": "#8D0071", "marker-size": "small" }, "geometry": { "type": "Point", "coordinates": [ -111.639630000023999, 40.589690000193499 ] } },
{ "type": "Feature", "properties": { "field_1": "141", "City": "Bluffdale", "Distribution": "5032.81", "latitude": "40.4934199997334", "longitude": "-111.938770000235", "taxLev": "6", "marker-color": "#8D0071", "marker-size": "small" }, "geometry": { "type": "Point", "coordinates": [ -111.938770000234996, 40.493419999733398 ] } },
{ "type": "Feature", "properties": { "field_1": "142", "City": "Cottonwood Heights", "Distribution": "30545.8", "latitude": "40.626100000215", "longitude": "-111.856160000184", "taxLev": "8", "marker-color": "#C60038", "marker-size": "small" }, "geometry": { "type": "Point", "coordinates": [ -111.856160000184005, 40.626100000214997 ] } },
{ "type": "Feature", "properties": { "field_1": "143", "City": "Draper", "Distribution": "46863.02", "latitude": "40.5241399999612", "longitude": "-111.866269999661", "taxLev": "8", "marker-color": "#C60038", "marker-size": "small" }, "geometry": { "type": "Point", "coordinates": [ -111.866269999661, 40.5241399999612 ] } },
{ "type": "Feature", "properties": { "field_1": "144", "City": "Herriman", "Distribution": "12776.41", "latitude": "40.5141699997458", "longitude": "-112.033490000263", "taxLev": "7", "marker-color": "#AA0055", "marker-size": "small" }, "geometry": { "type": "Point", "coordinates": [ -112.033490000263001, 40.514169999745803 ] } },
{ "type": "Feature", "properties": { "field_1": "145", "City": "Holladay", "Distribution": "44113.92", "latitude": "40.6714200001331", "longitude": "-111.824559999844", "taxLev": "8", "marker-color": "#C60038", "marker-size": "small" }, "geometry": { "type": "Point", "coordinates": [ -111.824559999843999, 40.671420000133097 ] } },
{ "type": "Feature", "properties": { "field_1": "146", "City": "Midvale", "Distribution": "54756", "latitude": "40.6107599996744", "longitude": "-111.908720000328", "taxLev": "8", "marker-color": "#C60038", "marker-size": "small" }, "geometry": { "type": "Point", "coordinates": [ -111.908720000328003, 40.6107599996744 ] } },
{ "type": "Feature", "properties": { "field_1": "147", "City": "Murray", "Distribution": "80201.17", "latitude": "40.6621099997768", "longitude": "-111.888320000268", "taxLev": "9", "marker-color": "#E2001C", "marker-size": "small" }, "geometry": { "type": "Point", "coordinates": [ -111.888320000267996, 40.662109999776803 ] } },
{ "type": "Feature", "properties": { "field_1": "148", "City": "Riverton", "Distribution": "31820.62", "latitude": "40.5200999998153", "longitude": "-111.93167000017", "taxLev": "8", "marker-color": "#C60038", "marker-size": "small" }, "geometry": { "type": "Point", "coordinates": [ -111.931670000170001, 40.520099999815301 ] } },
{ "type": "Feature", "properties": { "field_1": "149", "City": "Salt Lake City", "Distribution": "491132.69", "latitude": "40.7594999997254", "longitude": "-111.888229999715", "taxLev": "10", "marker-color": "#FF0000", "marker-size": "small" }, "geometry": { "type": "Point", "coordinates": [ -111.888229999714994, 40.759499999725399 ] } },
{ "type": "Feature", "properties": { "field_1": "150", "City": "Sandy", "Distribution": "101868.96", "latitude": "40.5700799996924", "longitude": "-111.895140000011", "taxLev": "9", "marker-color": "#E2001C", "marker-size": "small" }, "geometry": { "type": "Point", "coordinates": [ -111.895140000010997, 40.570079999692403 ] } },
{ "type": "Feature", "properties": { "field_1": "151", "City": "South Jordan", "Distribution": "39044.72", "latitude": "40.5480200004229", "longitude": "-111.93867000012", "taxLev": "8", "marker-color": "#C60038", "marker-size": "small" }, "geometry": { "type": "Point", "coordinates": [ -111.938670000119998, 40.548020000422902 ] } },
{ "type": "Feature", "properties": { "field_1": "152", "City": "South Salt Lake", "Distribution": "80286.21", "latitude": "40.7178499999777", "longitude": "-111.882920000358", "taxLev": "9", "marker-color": "#E2001C", "marker-size": "small" }, "geometry": { "type": "Point", "coordinates": [ -111.882920000357998, 40.717849999977702 ] } },
{ "type": "Feature", "properties": { "field_1": "153", "City": "Taylorsville", "Distribution": "54467.08", "latitude": "40.6565400001211", "longitude": "-111.938850000327", "taxLev": "8", "marker-color": "#C60038", "marker-size": "small" }, "geometry": { "type": "Point", "coordinates": [ -111.938850000326994, 40.656540000121097 ] } },
{ "type": "Feature", "properties": { "field_1": "154", "City": "West Jordan", "Distribution": "101672.93", "latitude": "40.6067500000127", "longitude": "-111.938750000212", "taxLev": "9", "marker-color": "#E2001C", "marker-size": "small" }, "geometry": { "type": "Point", "coordinates": [ -111.938750000211996, 40.606750000012703 ] } },
{ "type": "Feature", "properties": { "field_1": "155", "City": "West Valley City", "Distribution": "161659.1", "latitude": "40.6936900000936", "longitude": "-111.957880000162", "taxLev": "9", "marker-color": "#E2001C", "marker-size": "small" }, "geometry": { "type": "Point", "coordinates": [ -111.957880000162007, 40.693690000093603 ] } },
{ "type": "Feature", "properties": { "field_1": "157", "City": "Blanding", "Distribution": "8329.3", "latitude": "37.625409999572", "longitude": "-109.477120000288", "taxLev": "7", "marker-color": "#AA0055", "marker-size": "small" }, "geometry": { "type": "Point", "coordinates": [ -109.477120000287997, 37.625409999572 ] } },
{ "type": "Feature", "properties": { "field_1": "158", "City": "Monticello", "Distribution": "4301.6", "latitude": "37.8704699996909", "longitude": "-109.342910000296", "taxLev": "6", "marker-color": "#8D0071", "marker-size": "small" }, "geometry": { "type": "Point", "coordinates": [ -109.342910000296001, 37.870469999690897 ] } },
{ "type": "Feature", "properties": { "field_1": "160", "City": "Centerfield", "Distribution": "896.06", "latitude": "39.1276100000017", "longitude": "-111.819190000418", "taxLev": "5", "marker-color": "#71008D", "marker-size": "small" }, "geometry": { "type": "Point", "coordinates": [ -111.819190000418004, 39.127610000001702 ] } },
{ "type": "Feature", "properties": { "field_1": "161", "City": "Ephraim", "Distribution": "7262.33", "latitude": "39.3607000003049", "longitude": "-111.587129999949", "taxLev": "6", "marker-color": "#8D0071", "marker-size": "small" }, "geometry": { "type": "Point", "coordinates": [ -111.587129999948999, 39.360700000304902 ] } },
{ "type": "Feature", "properties": { "field_1": "162", "City": "Fairview", "Distribution": "1828.39", "latitude": "39.630489999614", "longitude": "-111.439260000449", "taxLev": "5", "marker-color": "#71008D", "marker-size": "small" }, "geometry": { "type": "Point", "coordinates": [ -111.439260000448996, 39.630489999613999 ] } },
{ "type": "Feature", "properties": { "field_1": "163", "City": "Fayette", "Distribution": "101.04", "latitude": "39.2245600003439", "longitude": "-111.848030000284", "taxLev": "3", "marker-color": "#3800C6", "marker-size": "small" }, "geometry": { "type": "Point", "coordinates": [ -111.848030000283998, 39.224560000343899 ] } },
{ "type": "Feature", "properties": { "field_1": "164", "City": "Fountain Green", "Distribution": "728.92", "latitude": "39.6227000001051", "longitude": "-111.634689999744", "taxLev": "4", "marker-color": "#5500AA", "marker-size": "small" }, "geometry": { "type": "Point", "coordinates": [ -111.634689999743998, 39.622700000105098 ] } },
{ "type": "Feature", "properties": { "field_1": "165", "City": "Gunnison", "Distribution": "2241.47", "latitude": "39.1517099998168", "longitude": "-111.818350000352", "taxLev": "5", "marker-color": "#71008D", "marker-size": "small" }, "geometry": { "type": "Point", "coordinates": [ -111.818350000351998, 39.151709999816802 ] } },
{ "type": "Feature", "properties": { "field_1": "166", "City": "Manti", "Distribution": "3025.3", "latitude": "39.2646999997054", "longitude": "-111.637020000173", "taxLev": "6", "marker-color": "#8D0071", "marker-size": "small" }, "geometry": { "type": "Point", "coordinates": [ -111.637020000172996, 39.2646999997054 ] } },
{ "type": "Feature", "properties": { "field_1": "167", "City": "Mayfield", "Distribution": "559.88", "latitude": "39.1160900002535", "longitude": "-111.710689999843", "taxLev": "4", "marker-color": "#5500AA", "marker-size": "small" }, "geometry": { "type": "Point", "coordinates": [ -111.710689999842998, 39.1160900002535 ] } },
{ "type": "Feature", "properties": { "field_1": "168", "City": "Moroni", "Distribution": "2266.76", "latitude": "39.524920000158", "longitude": "-111.582859999989", "taxLev": "5", "marker-color": "#71008D", "marker-size": "small" }, "geometry": { "type": "Point", "coordinates": [ -111.582859999988997, 39.524920000157998 ] } },
{ "type": "Feature", "properties": { "field_1": "169", "City": "Mount Pleasant", "Distribution": "5259.04", "latitude": "39.546769999636", "longitude": "-111.455859999739", "taxLev": "6", "marker-color": "#8D0071", "marker-size": "small" }, "geometry": { "type": "Point", "coordinates": [ -111.455859999739005, 39.546769999635998 ] } },
{ "type": "Feature", "properties": { "field_1": "170", "City": "Spring City", "Distribution": "1009.07", "latitude": "39.4802400000761", "longitude": "-111.496069999631", "taxLev": "5", "marker-color": "#71008D", "marker-size": "small" }, "geometry": { "type": "Point", "coordinates": [ -111.496069999631004, 39.480240000076101 ] } },
{ "type": "Feature", "properties": { "field_1": "171", "City": "Sterling", "Distribution": "476.46", "latitude": "39.1941900000686", "longitude": "-111.692520000098", "taxLev": "4", "marker-color": "#5500AA", "marker-size": "small" }, "geometry": { "type": "Point", "coordinates": [ -111.692520000098, 39.194190000068602 ] } },
{ "type": "Feature", "properties": { "field_1": "172", "City": "Wales", "Distribution": "113.6", "latitude": "39.4876500000476", "longitude": "-111.635119999788", "taxLev": "3", "marker-color": "#3800C6", "marker-size": "small" }, "geometry": { "type": "Point", "coordinates": [ -111.635119999788003, 39.487650000047601 ] } },
{ "type": "Feature", "properties": { "field_1": "174", "City": "Annabella", "Distribution": "316.62", "latitude": "38.7083100002065", "longitude": "-112.061840000016", "taxLev": "4", "marker-color": "#5500AA", "marker-size": "small" }, "geometry": { "type": "Point", "coordinates": [ -112.061840000016005, 38.708310000206502 ] } },
{ "type": "Feature", "properties": { "field_1": "175", "City": "Aurora", "Distribution": "610.03", "latitude": "38.9186200004128", "longitude": "-111.935189999719", "taxLev": "4", "marker-color": "#5500AA", "marker-size": "small" }, "geometry": { "type": "Point", "coordinates": [ -111.935189999719, 38.918620000412801 ] } },
{ "type": "Feature", "properties": { "field_1": "177", "City": "Elsinore", "Distribution": "704.6", "latitude": "38.6830099999117", "longitude": "-112.147650000147", "taxLev": "4", "marker-color": "#5500AA", "marker-size": "small" }, "geometry": { "type": "Point", "coordinates": [ -112.147650000146996, 38.683009999911697 ] } },
{ "type": "Feature", "properties": { "field_1": "178", "City": "Glenwood", "Distribution": "211.59", "latitude": "38.7638300001545", "longitude": "-111.990379999737", "taxLev": "3", "marker-color": "#3800C6", "marker-size": "small" }, "geometry": { "type": "Point", "coordinates": [ -111.990379999737002, 38.763830000154499 ] } },
{ "type": "Feature", "properties": { "field_1": "179", "City": "Joseph", "Distribution": "130.69", "latitude": "38.6267900000586", "longitude": "-112.218179999807", "taxLev": "3", "marker-color": "#3800C6", "marker-size": "small" }, "geometry": { "type": "Point", "coordinates": [ -112.218179999807006, 38.626790000058598 ] } },
{ "type": "Feature", "properties": { "field_1": "180", "City": "Koosharem", "Distribution": "487.52", "latitude": "38.5124999995755", "longitude": "-111.881360000364", "taxLev": "4", "marker-color": "#5500AA", "marker-size": "small" }, "geometry": { "type": "Point", "coordinates": [ -111.881360000363998, 38.512499999575503 ] } },
{ "type": "Feature", "properties": { "field_1": "181", "City": "Monroe", "Distribution": "1603.14", "latitude": "38.6310899996039", "longitude": "-112.121389999649", "taxLev": "5", "marker-color": "#71008D", "marker-size": "small" }, "geometry": { "type": "Point", "coordinates": [ -112.121389999648997, 38.631089999603901 ] } },
{ "type": "Feature", "properties": { "field_1": "182", "City": "Redmond", "Distribution": "397.52", "latitude": "39.0054000003099", "longitude": "-111.861669999771", "taxLev": "4", "marker-color": "#5500AA", "marker-size": "small" }, "geometry": { "type": "Point", "coordinates": [ -111.861669999770996, 39.005400000309898 ] } },
{ "type": "Feature", "properties": { "field_1": "183", "City": "Richfield", "Distribution": "9136.43", "latitude": "38.7715500000326", "longitude": "-112.084780000297", "taxLev": "7", "marker-color": "#AA0055", "marker-size": "small" }, "geometry": { "type": "Point", "coordinates": [ -112.084780000297002, 38.771550000032597 ] } },
{ "type": "Feature", "properties": { "field_1": "184", "City": "Salina", "Distribution": "4886.74", "latitude": "38.9582499996379", "longitude": "-111.860080000192", "taxLev": "6", "marker-color": "#8D0071", "marker-size": "small" }, "geometry": { "type": "Point", "coordinates": [ -111.860080000191999, 38.9582499996379 ] } },
{ "type": "Feature", "properties": { "field_1": "185", "City": "Sigurd", "Distribution": "894.09", "latitude": "38.8418699999007", "longitude": "-111.967369999826", "taxLev": "5", "marker-color": "#71008D", "marker-size": "small" }, "geometry": { "type": "Point", "coordinates": [ -111.967369999826005, 38.841869999900702 ] } },
{ "type": "Feature", "properties": { "field_1": "187", "City": "Coalville", "Distribution": "1710.22", "latitude": "40.9182399995765", "longitude": "-111.399659999909", "taxLev": "5", "marker-color": "#71008D", "marker-size": "small" }, "geometry": { "type": "Point", "coordinates": [ -111.399659999909005, 40.9182399995765 ] } },
{ "type": "Feature", "properties": { "field_1": "188", "City": "Francis", "Distribution": "798.57", "latitude": "40.6105099998368", "longitude": "-111.280160000184", "taxLev": "4", "marker-color": "#5500AA", "marker-size": "small" }, "geometry": { "type": "Point", "coordinates": [ -111.280160000183997, 40.6105099998368 ] } },
{ "type": "Feature", "properties": { "field_1": "189", "City": "Henefer", "Distribution": "689.53", "latitude": "41.017440000256", "longitude": "-111.498709999966", "taxLev": "4", "marker-color": "#5500AA", "marker-size": "small" }, "geometry": { "type": "Point", "coordinates": [ -111.498709999965996, 41.017440000256002 ] } },
{ "type": "Feature", "properties": { "field_1": "190", "City": "Kamas", "Distribution": "4547.23", "latitude": "40.643149999573", "longitude": "-111.279690000093", "taxLev": "6", "marker-color": "#8D0071", "marker-size": "small" }, "geometry": { "type": "Point", "coordinates": [ -111.279690000092998, 40.643149999572998 ] } },
{ "type": "Feature", "properties": { "field_1": "191", "City": "Oakley", "Distribution": "1360.93", "latitude": "40.7148500001276", "longitude": "-111.298900000135", "taxLev": "5", "marker-color": "#71008D", "marker-size": "small" }, "geometry": { "type": "Point", "coordinates": [ -111.298900000135006, 40.714850000127598 ] } },
{ "type": "Feature", "properties": { "field_1": "192", "City": "Park City", "Distribution": "60289.9", "latitude": "40.6431400000112", "longitude": "-111.493969999915", "taxLev": "8", "marker-color": "#C60038", "marker-size": "small" }, "geometry": { "type": "Point", "coordinates": [ -111.493969999914995, 40.643140000011201 ] } },
{ "type": "Feature", "properties": { "field_1": "194", "City": "Grantsville", "Distribution": "10193.61", "latitude": "40.5999199998083", "longitude": "-112.466749999912", "taxLev": "7", "marker-color": "#AA0055", "marker-size": "small" }, "geometry": { "type": "Point", "coordinates": [ -112.466749999911997, 40.5999199998083 ] } },
{ "type": "Feature", "properties": { "field_1": "195", "City": "Ophir", "Distribution": "8.57", "latitude": "40.366240000176", "longitude": "-112.264809999881", "taxLev": "1", "marker-color": "#0000FF", "marker-size": "small" }, "geometry": { "type": "Point", "coordinates": [ -112.264809999880995, 40.366240000175999 ] } },
{ "type": "Feature", "properties": { "field_1": "196", "City": "Stockton", "Distribution": "976", "latitude": "40.4518399996165", "longitude": "-112.362520000198", "taxLev": "5", "marker-color": "#71008D", "marker-size": "small" }, "geometry": { "type": "Point", "coordinates": [ -112.362520000198003, 40.451839999616503 ] } },
{ "type": "Feature", "properties": { "field_1": "197", "City": "Tooele", "Distribution": "57306.4", "latitude": "40.5311300003494", "longitude": "-112.298509999936", "taxLev": "8", "marker-color": "#C60038", "marker-size": "small" }, "geometry": { "type": "Point", "coordinates": [ -112.298509999936002, 40.5311300003494 ] } },
{ "type": "Feature", "properties": { "field_1": "198", "City": "Vernon", "Distribution": "499.07", "latitude": "40.0916899998937", "longitude": "-112.430830000004", "taxLev": "4", "marker-color": "#5500AA", "marker-size": "small" }, "geometry": { "type": "Point", "coordinates": [ -112.430830000003994, 40.091689999893703 ] } },
{ "type": "Feature", "properties": { "field_1": "199", "City": "Wendover", "Distribution": "2278.74", "latitude": "40.7364699997908", "longitude": "-114.040269999561", "taxLev": "5", "marker-color": "#71008D", "marker-size": "small" }, "geometry": { "type": "Point", "coordinates": [ -114.040269999561005, 40.736469999790799 ] } },
{ "type": "Feature", "properties": { "field_1": "200", "City": "Rush Valley", "Distribution": "306.57", "latitude": "40.3592099997418", "longitude": "-112.453509999986", "taxLev": "4", "marker-color": "#5500AA", "marker-size": "small" }, "geometry": { "type": "Point", "coordinates": [ -112.453509999985997, 40.3592099997418 ] } },
{ "type": "Feature", "properties": { "field_1": "202", "City": "Naples", "Distribution": "4814.69", "latitude": "40.4237399997014", "longitude": "-109.499350000202", "taxLev": "6", "marker-color": "#8D0071", "marker-size": "small" }, "geometry": { "type": "Point", "coordinates": [ -109.499350000202, 40.423739999701397 ] } },
{ "type": "Feature", "properties": { "field_1": "203", "City": "Vernal", "Distribution": "33085.35", "latitude": "40.4557100000167", "longitude": "-109.528959999604", "taxLev": "8", "marker-color": "#C60038", "marker-size": "small" }, "geometry": { "type": "Point", "coordinates": [ -109.528959999603998, 40.455710000016701 ] } },
{ "type": "Feature", "properties": { "field_1": "204", "City": "Ballard", "Distribution": "718.17", "latitude": "40.3022899999837", "longitude": "-109.952960000304", "taxLev": "4", "marker-color": "#5500AA", "marker-size": "small" }, "geometry": { "type": "Point", "coordinates": [ -109.952960000304003, 40.302289999983699 ] } },
{ "type": "Feature", "properties": { "field_1": "206", "City": "Alpine", "Distribution": "5773.5", "latitude": "40.4538600001391", "longitude": "-111.777829999655", "taxLev": "6", "marker-color": "#8D0071", "marker-size": "small" }, "geometry": { "type": "Point", "coordinates": [ -111.777829999654998, 40.453860000139102 ] } },
{ "type": "Feature", "properties": { "field_1": "207", "City": "American Fork", "Distribution": "32928.84", "latitude": "40.377829999555", "longitude": "-111.797480000202", "taxLev": "8", "marker-color": "#C60038", "marker-size": "small" }, "geometry": { "type": "Point", "coordinates": [ -111.797480000202, 40.377829999554997 ] } },
{ "type": "Feature", "properties": { "field_1": "208", "City": "Cedar Fort", "Distribution": "519.17", "latitude": "40.3237900004083", "longitude": "-112.103509999787", "taxLev": "4", "marker-color": "#5500AA", "marker-size": "small" }, "geometry": { "type": "Point", "coordinates": [ -112.103509999786993, 40.323790000408302 ] } },
{ "type": "Feature", "properties": { "field_1": "209", "City": "Eagle Mountain", "Distribution": "12536.99", "latitude": "40.3802400000761", "longitude": "-111.987379999887", "taxLev": "7", "marker-color": "#AA0055", "marker-size": "small" }, "geometry": { "type": "Point", "coordinates": [ -111.987379999886997, 40.3802400000761 ] } },
{ "type": "Feature", "properties": { "field_1": "210", "City": "Fairfield", "Distribution": "67.37", "latitude": "40.2659899996389", "longitude": "-112.093790000308", "taxLev": "2", "marker-color": "#1C00E2", "marker-size": "small" }, "geometry": { "type": "Point", "coordinates": [ -112.093790000308005, 40.265989999638897 ] } },
{ "type": "Feature", "properties": { "field_1": "211", "City": "Genola", "Distribution": "1054.27", "latitude": "40.0182700000606", "longitude": "-111.84339999991", "taxLev": "5", "marker-color": "#71008D", "marker-size": "small" }, "geometry": { "type": "Point", "coordinates": [ -111.843399999910005, 40.018270000060603 ] } },
{ "type": "Feature", "properties": { "field_1": "212", "City": "Goshen", "Distribution": "953.79", "latitude": "39.9528800000122", "longitude": "-111.898119999838", "taxLev": "5", "marker-color": "#71008D", "marker-size": "small" }, "geometry": { "type": "Point", "coordinates": [ -111.898119999838002, 39.9528800000122 ] } },
{ "type": "Feature", "properties": { "field_1": "213", "City": "Lehi", "Distribution": "48275.84", "latitude": "40.3896600001091", "longitude": "-111.847469999641", "taxLev": "8", "marker-color": "#C60038", "marker-size": "small" }, "geometry": { "type": "Point", "coordinates": [ -111.847469999641007, 40.389660000109103 ] } },
{ "type": "Feature", "properties": { "field_1": "214", "City": "Lindon", "Distribution": "12924.41", "latitude": "40.3408700002505", "longitude": "-111.719380000387", "taxLev": "7", "marker-color": "#AA0055", "marker-size": "small" }, "geometry": { "type": "Point", "coordinates": [ -111.719380000387005, 40.340870000250497 ] } },
{ "type": "Feature", "properties": { "field_1": "215", "City": "Mapleton", "Distribution": "5241.38", "latitude": "40.1303999998603", "longitude": "-111.578280000122", "taxLev": "6", "marker-color": "#8D0071", "marker-size": "small" }, "geometry": { "type": "Point", "coordinates": [ -111.578280000122007, 40.130399999860302 ] } },
{ "type": "Feature", "properties": { "field_1": "216", "City": "Orem", "Distribution": "96632.15", "latitude": "40.2980600000691", "longitude": "-111.695419999833", "taxLev": "9", "marker-color": "#E2001C", "marker-size": "small" }, "geometry": { "type": "Point", "coordinates": [ -111.695419999833007, 40.2980600000691 ] } },
{ "type": "Feature", "properties": { "field_1": "217", "City": "Payson", "Distribution": "23077.29", "latitude": "40.0436300004243", "longitude": "-111.738649999598", "taxLev": "7", "marker-color": "#AA0055", "marker-size": "small" }, "geometry": { "type": "Point", "coordinates": [ -111.738649999597996, 40.043630000424301 ] } },
{ "type": "Feature", "properties": { "field_1": "218", "City": "Pleasant Grove", "Distribution": "32541.11", "latitude": "40.36320000028", "longitude": "-111.738849999827", "taxLev": "8", "marker-color": "#C60038", "marker-size": "small" }, "geometry": { "type": "Point", "coordinates": [ -111.738849999826996, 40.363200000280003 ] } },
{ "type": "Feature", "properties": { "field_1": "219", "City": "Provo", "Distribution": "119638.93", "latitude": "40.2337700003854", "longitude": "-111.668509999936", "taxLev": "9", "marker-color": "#E2001C", "marker-size": "small" }, "geometry": { "type": "Point", "coordinates": [ -111.668509999936006, 40.233770000385398 ] } },
{ "type": "Feature", "properties": { "field_1": "220", "City": "Salem", "Distribution": "6510.55", "latitude": "40.053069999581", "longitude": "-111.674419999983", "taxLev": "6", "marker-color": "#8D0071", "marker-size": "small" }, "geometry": { "type": "Point", "coordinates": [ -111.674419999983002, 40.053069999580998 ] } },
{ "type": "Feature", "properties": { "field_1": "221", "City": "Santaquin", "Distribution": "10739.58", "latitude": "39.975589999579", "longitude": "-111.780030000384", "taxLev": "7", "marker-color": "#AA0055", "marker-size": "small" }, "geometry": { "type": "Point", "coordinates": [ -111.780030000384002, 39.975589999579 ] } },
{ "type": "Feature", "properties": { "field_1": "222", "City": "Saratoga Springs", "Distribution": "14797.19", "latitude": "40.3472300003644", "longitude": "-111.908950000142", "taxLev": "7", "marker-color": "#AA0055", "marker-size": "small" }, "geometry": { "type": "Point", "coordinates": [ -111.908950000141999, 40.347230000364398 ] } },
{ "type": "Feature", "properties": { "field_1": "223", "City": "Highland", "Distribution": "10036.31", "latitude": "40.4209200000581", "longitude": "-111.78779999987", "taxLev": "7", "marker-color": "#AA0055", "marker-size": "small" }, "geometry": { "type": "Point", "coordinates": [ -111.787799999870003, 40.420920000058103 ] } },
{ "type": "Feature", "properties": { "field_1": "224", "City": "Spanish Fork", "Distribution": "28847.12", "latitude": "40.1091500001725", "longitude": "-111.654790000358", "taxLev": "8", "marker-color": "#C60038", "marker-size": "small" }, "geometry": { "type": "Point", "coordinates": [ -111.654790000358005, 40.109150000172498 ] } },
{ "type": "Feature", "properties": { "field_1": "225", "City": "Springville", "Distribution": "28989.95", "latitude": "40.165960000254", "longitude": "-111.610640000436", "taxLev": "8", "marker-color": "#C60038", "marker-size": "small" }, "geometry": { "type": "Point", "coordinates": [ -111.610640000436007, 40.165960000254003 ] } },
{ "type": "Feature", "properties": { "field_1": "226", "City": "Vineyard", "Distribution": "71.89", "latitude": "40.2970799998423", "longitude": "-111.742580000067", "taxLev": "2", "marker-color": "#1C00E2", "marker-size": "small" }, "geometry": { "type": "Point", "coordinates": [ -111.742580000066994, 40.297079999842303 ] } },
{ "type": "Feature", "properties": { "field_1": "227", "City": "Cedar Hills", "Distribution": "5733.06", "latitude": "40.4153900004483", "longitude": "-111.764939999681", "taxLev": "6", "marker-color": "#8D0071", "marker-size": "small" }, "geometry": { "type": "Point", "coordinates": [ -111.764939999681005, 40.415390000448298 ] } },
{ "type": "Feature", "properties": { "field_1": "228", "City": "Elk Ridge", "Distribution": "1296.53", "latitude": "40.0146500003974", "longitude": "-111.680909999796", "taxLev": "5", "marker-color": "#71008D", "marker-size": "small" }, "geometry": { "type": "Point", "coordinates": [ -111.680909999796, 40.014650000397403 ] } },
{ "type": "Feature", "properties": { "field_1": "229", "City": "Woodland Hills", "Distribution": "696.02", "latitude": "40.0252799995725", "longitude": "-111.653710000016", "taxLev": "4", "marker-color": "#5500AA", "marker-size": "small" }, "geometry": { "type": "Point", "coordinates": [ -111.653710000016005, 40.025279999572497 ] } },
{ "type": "Feature", "properties": { "field_1": "231", "City": "Charleston", "Distribution": "226.67", "latitude": "40.4663000000451", "longitude": "-111.468860000289", "taxLev": "3", "marker-color": "#3800C6", "marker-size": "small" }, "geometry": { "type": "Point", "coordinates": [ -111.468860000288998, 40.466300000045102 ] } },
{ "type": "Feature", "properties": { "field_1": "235", "City": "Midway", "Distribution": "6675.02", "latitude": "40.5122300002145", "longitude": "-111.475510000286", "taxLev": "6", "marker-color": "#8D0071", "marker-size": "small" }, "geometry": { "type": "Point", "coordinates": [ -111.475510000285993, 40.512230000214501 ] } },
{ "type": "Feature", "properties": { "field_1": "236", "City": "Wallsburg", "Distribution": "151.29", "latitude": "40.3876999996554", "longitude": "-111.423500000325", "taxLev": "3", "marker-color": "#3800C6", "marker-size": "small" }, "geometry": { "type": "Point", "coordinates": [ -111.423500000325006, 40.387699999655403 ] } },
{ "type": "Feature", "properties": { "field_1": "240", "City": "Enterprise", "Distribution": "1552.53", "latitude": "37.5735999998403", "longitude": "-113.71359999964", "taxLev": "5", "marker-color": "#71008D", "marker-size": "small" }, "geometry": { "type": "Point", "coordinates": [ -113.713599999639996, 37.573599999840297 ] } },
{ "type": "Feature", "properties": { "field_1": "241", "City": "Hurricane", "Distribution": "24884.86", "latitude": "37.1770000000501", "longitude": "-113.284859999789", "taxLev": "7", "marker-color": "#AA0055", "marker-size": "small" }, "geometry": { "type": "Point", "coordinates": [ -113.284859999789006, 37.1770000000501 ] } },
{ "type": "Feature", "properties": { "field_1": "242", "City": "Ivins", "Distribution": "5321.85", "latitude": "37.168389999599", "longitude": "-113.671849999778", "taxLev": "6", "marker-color": "#8D0071", "marker-size": "small" }, "geometry": { "type": "Point", "coordinates": [ -113.671849999778004, 37.168389999599 ] } },
{ "type": "Feature", "properties": { "field_1": "243", "City": "La Verkin", "Distribution": "2186.49", "latitude": "37.2108800003119", "longitude": "-113.270150000422", "taxLev": "5", "marker-color": "#71008D", "marker-size": "small" }, "geometry": { "type": "Point", "coordinates": [ -113.270150000422007, 37.210880000311903 ] } },
{ "type": "Feature", "properties": { "field_1": "244", "City": "Leeds", "Distribution": "719.68", "latitude": "37.2395199999482", "longitude": "-113.357840000016", "taxLev": "4", "marker-color": "#5500AA", "marker-size": "small" }, "geometry": { "type": "Point", "coordinates": [ -113.357840000015997, 37.2395199999482 ] } },
{ "type": "Feature", "properties": { "field_1": "245", "City": "New Harmony", "Distribution": "90.48", "latitude": "37.4780300001845", "longitude": "-113.309150000272", "taxLev": "3", "marker-color": "#3800C6", "marker-size": "small" }, "geometry": { "type": "Point", "coordinates": [ -113.309150000271998, 37.478030000184503 ] } },
{ "type": "Feature", "properties": { "field_1": "246", "City": "Rockville", "Distribution": "128.17", "latitude": "37.1612399999262", "longitude": "-113.036939999981", "taxLev": "3", "marker-color": "#3800C6", "marker-size": "small" }, "geometry": { "type": "Point", "coordinates": [ -113.036939999981001, 37.161239999926202 ] } },
{ "type": "Feature", "properties": { "field_1": "247", "City": "St. George", "Distribution": "70150.72", "latitude": "37.1090699997808", "longitude": "-113.583300000095", "taxLev": "8", "marker-color": "#C60038", "marker-size": "small" }, "geometry": { "type": "Point", "coordinates": [ -113.583300000094994, 37.1090699997808 ] } },
{ "type": "Feature", "properties": { "field_1": "248", "City": "Santa Clara", "Distribution": "5472.26", "latitude": "37.1329199997584", "longitude": "-113.653740000101", "taxLev": "6", "marker-color": "#8D0071", "marker-size": "small" }, "geometry": { "type": "Point", "coordinates": [ -113.653740000100996, 37.1329199997584 ] } },
{ "type": "Feature", "properties": { "field_1": "249", "City": "Springdale", "Distribution": "7894.06", "latitude": "37.1831700003954", "longitude": "-113.003660000409", "taxLev": "6", "marker-color": "#8D0071", "marker-size": "small" }, "geometry": { "type": "Point", "coordinates": [ -113.003660000408999, 37.1831700003954 ] } },
{ "type": "Feature", "properties": { "field_1": "250", "City": "Toquerville", "Distribution": "682.45", "latitude": "37.2541900001685", "longitude": "-113.285039999996", "taxLev": "4", "marker-color": "#5500AA", "marker-size": "small" }, "geometry": { "type": "Point", "coordinates": [ -113.285039999996002, 37.254190000168499 ] } },
{ "type": "Feature", "properties": { "field_1": "251", "City": "Virgin", "Distribution": "1355.58", "latitude": "37.203609999602", "longitude": "-113.187179999957", "taxLev": "5", "marker-color": "#71008D", "marker-size": "small" }, "geometry": { "type": "Point", "coordinates": [ -113.187179999956996, 37.203609999602001 ] } },
{ "type": "Feature", "properties": { "field_1": "252", "City": "Washington", "Distribution": "23750.7", "latitude": "37.1302699998608", "longitude": "-113.509379999687", "taxLev": "7", "marker-color": "#AA0055", "marker-size": "small" }, "geometry": { "type": "Point", "coordinates": [ -113.509379999686999, 37.130269999860801 ] } },
{ "type": "Feature", "properties": { "field_1": "253", "City": "Hildale", "Distribution": "1024.31", "latitude": "37.0035899999787", "longitude": "-112.983690000393", "taxLev": "5", "marker-color": "#71008D", "marker-size": "small" }, "geometry": { "type": "Point", "coordinates": [ -112.983690000392997, 37.003589999978701 ] } },
{ "type": "Feature", "properties": { "field_1": "255", "City": "Bicknell", "Distribution": "511.13", "latitude": "38.3405799998673", "longitude": "-111.541859999639", "taxLev": "4", "marker-color": "#5500AA", "marker-size": "small" }, "geometry": { "type": "Point", "coordinates": [ -111.541859999639001, 38.340579999867302 ] } },
{ "type": "Feature", "properties": { "field_1": "256", "City": "Hanksville", "Distribution": "1468.04", "latitude": "38.3744099996219", "longitude": "-110.711639999786", "taxLev": "5", "marker-color": "#71008D", "marker-size": "small" }, "geometry": { "type": "Point", "coordinates": [ -110.711639999786001, 38.374409999621903 ] } },
{ "type": "Feature", "properties": { "field_1": "257", "City": "Loa", "Distribution": "595.05", "latitude": "38.4029700000656", "longitude": "-111.642779999597", "taxLev": "4", "marker-color": "#5500AA", "marker-size": "small" }, "geometry": { "type": "Point", "coordinates": [ -111.642779999596996, 38.402970000065601 ] } },
{ "type": "Feature", "properties": { "field_1": "258", "City": "Lyman", "Distribution": "109.58", "latitude": "38.3934800004018", "longitude": "-111.589500000425", "taxLev": "3", "marker-color": "#3800C6", "marker-size": "small" }, "geometry": { "type": "Point", "coordinates": [ -111.589500000425005, 38.393480000401802 ] } },
{ "type": "Feature", "properties": { "field_1": "259", "City": "Torrey", "Distribution": "1804.26", "latitude": "38.2990300002345", "longitude": "-111.419979999877", "taxLev": "5", "marker-color": "#71008D", "marker-size": "small" }, "geometry": { "type": "Point", "coordinates": [ -111.419979999877, 38.299030000234502 ] } },
{ "type": "Feature", "properties": { "field_1": "261", "City": "Farr West", "Distribution": "6039.31", "latitude": "41.2961800004069", "longitude": "-112.027729999939", "taxLev": "6", "marker-color": "#8D0071", "marker-size": "small" }, "geometry": { "type": "Point", "coordinates": [ -112.027729999938998, 41.296180000406899 ] } },
{ "type": "Feature", "properties": { "field_1": "262", "City": "Harrisville", "Distribution": "12279.07", "latitude": "41.2816999999552", "longitude": "-111.984990000288", "taxLev": "7", "marker-color": "#AA0055", "marker-size": "small" }, "geometry": { "type": "Point", "coordinates": [ -111.984990000287993, 41.281699999955201 ] } },
{ "type": "Feature", "properties": { "field_1": "263", "City": "Hooper", "Distribution": "3344.98", "latitude": "41.1610900003034", "longitude": "-112.122850000427", "taxLev": "6", "marker-color": "#8D0071", "marker-size": "small" }, "geometry": { "type": "Point", "coordinates": [ -112.122850000426993, 41.161090000303403 ] } },
{ "type": "Feature", "properties": { "field_1": "264", "City": "Huntsville", "Distribution": "1063.08", "latitude": "41.260669999621", "longitude": "-111.77127000021", "taxLev": "5", "marker-color": "#71008D", "marker-size": "small" }, "geometry": { "type": "Point", "coordinates": [ -111.771270000209995, 41.260669999621001 ] } },
{ "type": "Feature", "properties": { "field_1": "265", "City": "Marriott-Slaterville", "Distribution": "3223.09", "latitude": "41.2672799995725", "longitude": "-112.017380000187", "taxLev": "6", "marker-color": "#8D0071", "marker-size": "small" }, "geometry": { "type": "Point", "coordinates": [ -112.017380000187003, 41.267279999572501 ] } },
{ "type": "Feature", "properties": { "field_1": "266", "City": "North Ogden", "Distribution": "13794.8", "latitude": "41.3058399998163", "longitude": "-111.964249999837", "taxLev": "7", "marker-color": "#AA0055", "marker-size": "small" }, "geometry": { "type": "Point", "coordinates": [ -111.964249999836994, 41.3058399998163 ] } },
{ "type": "Feature", "properties": { "field_1": "267", "City": "Ogden", "Distribution": "170942.45", "latitude": "41.2223600001141", "longitude": "-111.970460000229", "taxLev": "9", "marker-color": "#E2001C", "marker-size": "small" }, "geometry": { "type": "Point", "coordinates": [ -111.970460000228996, 41.222360000114101 ] } },
{ "type": "Feature", "properties": { "field_1": "268", "City": "Plain City", "Distribution": "3507.98", "latitude": "41.2978700001006", "longitude": "-112.080140000361", "taxLev": "6", "marker-color": "#8D0071", "marker-size": "small" }, "geometry": { "type": "Point", "coordinates": [ -112.080140000360998, 41.297870000100602 ] } },
{ "type": "Feature", "properties": { "field_1": "269", "City": "Pleasant View", "Distribution": "6441.95", "latitude": "41.319520000248", "longitude": "-111.990849999828", "taxLev": "6", "marker-color": "#8D0071", "marker-size": "small" }, "geometry": { "type": "Point", "coordinates": [ -111.990849999828001, 41.319520000247998 ] } },
{ "type": "Feature", "properties": { "field_1": "270", "City": "Riverdale", "Distribution": "17839.23", "latitude": "41.1766900002435", "longitude": "-111.992690000143", "taxLev": "7", "marker-color": "#AA0055", "marker-size": "small" }, "geometry": { "type": "Point", "coordinates": [ -111.992690000143, 41.176690000243497 ] } },
{ "type": "Feature", "properties": { "field_1": "271", "City": "Roy", "Distribution": "44028.56", "latitude": "41.1725900000287", "longitude": "-112.026020000223", "taxLev": "8", "marker-color": "#C60038", "marker-size": "small" }, "geometry": { "type": "Point", "coordinates": [ -112.026020000222999, 41.172590000028698 ] } },
{ "type": "Feature", "properties": { "field_1": "272", "City": "South Ogden", "Distribution": "19770.71", "latitude": "41.1918400001161", "longitude": "-111.966910000196", "taxLev": "7", "marker-color": "#AA0055", "marker-size": "small" }, "geometry": { "type": "Point", "coordinates": [ -111.966910000195995, 41.191840000116102 ] } },
{ "type": "Feature", "properties": { "field_1": "273", "City": "Uintah", "Distribution": "736.01", "latitude": "41.1442099997918", "longitude": "-111.92366999997", "taxLev": "4", "marker-color": "#5500AA", "marker-size": "small" }, "geometry": { "type": "Point", "coordinates": [ -111.923669999970002, 41.144209999791798 ] } },
{ "type": "Feature", "properties": { "field_1": "274", "City": "Washington Terrace", "Distribution": "7837.04", "latitude": "41.1829399997814", "longitude": "-111.97407000033", "taxLev": "6", "marker-color": "#8D0071", "marker-size": "small" }, "geometry": { "type": "Point", "coordinates": [ -111.974070000330002, 41.182939999781397 ] } },
{ "type": "Feature", "properties": { "field_1": "275", "City": "West Haven", "Distribution": "7545.16", "latitude": "41.2220300001845", "longitude": "-112.029510000186", "taxLev": "6", "marker-color": "#8D0071", "marker-size": "small" }, "geometry": { "type": "Point", "coordinates": [ -112.029510000185994, 41.222030000184503 ] } }
]
}

